{"type":"FeatureCollection","features":[{"type":"Feature","properties":{"marker-color":"red","marker-size":"small","name":"f54cb6f1a4739e7384792d434b41b12a"},"geometry":{"type":"Point","coordinates":[-179.994507,-89.997253]}},{"type":"Feature","properties":{"marker-color":"red","marker-size":"small","name":"538bbca652f84b992975603630a8b08d"},"geometry":{"type":"Point","coordinates":[7.673950,45.030212]}},{"type":"Feature","properties":{"marker-color":"red","marker-size":"small","name":"ad7984fbe05d36eccd9f37205a35b1f2"},"geometry":{"type":"Point","coordinates":[7.673950,45.035706]}},{"type":"Feature","properties":{"marker-color":"red","marker-size":"small","name":"fefc37d6fe27d9ce176f23b483c1b98f"},"geometry":{"type":"Point","coordinates":[7.684937,45.057678]}},{"type":"Feature","properties":{"marker-color":"red","marker-size":"small","name":"aa096ca77fe0f4065bc6feda1a230329"},"geometry":{"type":"Point","coordinates":[7.695923,45.057678]}},{"type":"Feature","properties":{"marker-color":"red","marker-size":"small","name":"4fd055799bed59f32070f4094d4235eb"},"geometry":{"type":"Point","coordinates":[7.684937,45.063171]}},{"type":"Feature","properties":{"marker-color":"red","marker-size":"small","name":"fbf17cb58b38eb8d402a220d1e01e839"},"geometry":{"type":"Point","coordinates":[7.695923,45.063171]}},{"type":"Feature","properties":{"marker-color":"red","marker-size":"small","name":"2a2a8c75d4e592865a80e12f1c190e5f"},"geometry":{"type":"Point","coordinates":[7.684937,45.068665]}},{"type":"Feature","properties":{"marker-color":"red","marker-size":"small","name":"b80956d34f38705b9567f49b8b5f0a68"},"geometry":{"type":"Point","coordinates":[7.542114,45.074158]}},{"type":"Feature","properties":{"marker-color":"red","marker-size":"small","name":"0e9995b299cf22d4ba62a48296cc91e8"},"geometry":{"type":"Point","coordinates":[7.662964,45.074158]}},{"type":"Feature","properties":{"marker-color":"red","marker-size":"small","name":"300426f9e70f21802ccf63ed1c1b202c"},"geometry":{"type":"Point","coordinates":[7.684937,45.074158]}},{"type":"Feature","properties":{"marker-color":"red","marker-size":"small","name":"32b1ca161ccbd37bf7c034b20d78033b"},"geometry":{"type":"Point","coordinates":[7.695923,45.079651]}},{"type":"Feature","properties":{"marker-color":"red","marker-size":"small","name":"eb19c2805be0d7761de11346b096ed03"},"geometry":{"type":"Point","coordinates":[7.564087,45.085144]}},{"type":"Feature","properties":{"marker-color":"red","marker-size":"small","name":"fc7a17e4e2496cf4517ebab21d3fb180"},"geometry":{"type":"Point","coordinates":[7.651978,45.085144]}},{"type":"Feature","properties":{"marker-color":"red","marker-size":"small","name":"63b52972081c7bb53f9eb666ad63d945"},"geometry":{"type":"Point","coordinates":[7.673950,45.085144]}},{"type":"Feature","properties":{"marker-color":"red","marker-size":"small","name":"7527ce187f9e3d8bc7c9a4f245459c2f"},"geometry":{"type":"Point","coordinates":[7.673950,45.090637]}},{"type":"Feature","properties":{"marker-color":"red","marker-size":"small","name":"8410e78e5d05bdde09b42b9738642f5e"},"geometry":{"type":"Point","coordinates":[7.684937,45.090637]}},{"type":"Feature","properties":{"marker-color":"red","marker-size":"small","name":"cbb4b43e90ca3aa707e49b50be0f4da5"},"geometry":{"type":"Point","coordinates":[7.388306,45.123596]}},{"type":"Feature","properties":{"marker-color":"red","marker-size":"small","name":"79edebf3a474d1a9f4062b6250d83aa9"},"geometry":{"type":"Point","coordinates":[5.850220,45.145569]}},{"type":"Feature","properties":{"marker-color":"red","marker-size":"small","name":"1e5f5b9692424406255caea0f7a0368b"},"geometry":{"type":"Point","coordinates":[5.707397,45.151062]}},{"type":"Feature","properties":{"marker-color":"red","marker-size":"small","name":"27656ce4cef51da08ff1ec38a718b2ef"},"geometry":{"type":"Point","coordinates":[5.685425,45.162048]}},{"type":"Feature","properties":{"marker-color":"red","marker-size":"small","name":"ec6a84b699f8bd665c20f5c2154daba9"},"geometry":{"type":"Point","coordinates":[5.729370,45.167542]}},{"type":"Feature","properties":{"marker-color":"red","marker-size":"small","name":"5dbcb14372b71535ce41f182298ed51c"},"geometry":{"type":"Point","coordinates":[5.861206,45.167542]}},{"type":"Feature","properties":{"marker-color":"red","marker-size":"small","name":"12814aaff45252f57f1d8775cfa1840c"},"geometry":{"type":"Point","coordinates":[5.707397,45.178528]}},{"type":"Feature","properties":{"marker-color":"red","marker-size":"small","name":"87cc0ea526e3b6c4aab12cbc8a24c200"},"geometry":{"type":"Point","coordinates":[5.718384,45.178528]}},{"type":"Feature","properties":{"marker-color":"red","marker-size":"small","name":"a313ab913aeb3b5356129e68bfcf8919"},"geometry":{"type":"Point","coordinates":[5.729370,45.178528]}},{"type":"Feature","properties":{"marker-color":"red","marker-size":"small","name":"bb9926471268cf0cc8567396d89c3e84"},"geometry":{"type":"Point","coordinates":[5.740356,45.178528]}},{"type":"Feature","properties":{"marker-color":"red","marker-size":"small","name":"9515a142e6b59490d887eb374ca64d0b"},"geometry":{"type":"Point","coordinates":[5.751343,45.178528]}},{"type":"Feature","properties":{"marker-color":"red","marker-size":"small","name":"8a52b711ee2d07a7e1d9ae2807dc5456"},"geometry":{"type":"Point","coordinates":[5.685425,45.184021]}},{"type":"Feature","properties":{"marker-color":"red","marker-size":"small","name":"0eb555c61a8ecb4a2a43a799b85c7f3a"},"geometry":{"type":"Point","coordinates":[5.707397,45.184021]}},{"type":"Feature","properties":{"marker-color":"red","marker-size":"small","name":"cfe719a467577e1c9b904cb63cdcc8ba"},"geometry":{"type":"Point","coordinates":[5.718384,45.184021]}},{"type":"Feature","properties":{"marker-color":"red","marker-size":"small","name":"6a689f6550bd54ab37b57f95f8027e1e"},"geometry":{"type":"Point","coordinates":[5.740356,45.184021]}},{"type":"Feature","properties":{"marker-color":"red","marker-size":"small","name":"251a54af51cb35908d1d11f9a3cb1076"},"geometry":{"type":"Point","coordinates":[5.751343,45.184021]}},{"type":"Feature","properties":{"marker-color":"red","marker-size":"small","name":"251a54af51cb35908d1d11f9a3cb1076"},"geometry":{"type":"Point","coordinates":[5.762329,45.184021]}},{"type":"Feature","properties":{"marker-color":"red","marker-size":"small","name":"810edb325e29d667f45eb54f9c531b4c"},"geometry":{"type":"Point","coordinates":[5.696411,45.189514]}},{"type":"Feature","properties":{"marker-color":"red","marker-size":"small","name":"75955a9950a91752134550a8f63b9cb2"},"geometry":{"type":"Point","coordinates":[5.718384,45.189514]}},{"type":"Feature","properties":{"marker-color":"red","marker-size":"small","name":"219ba5497ea7eb0c4d5a97ae047267d1"},"geometry":{"type":"Point","coordinates":[5.729370,45.189514]}},{"type":"Feature","properties":{"marker-color":"red","marker-size":"small","name":"ab0bbe3ff27f2afc81e32ca359596c8e"},"geometry":{"type":"Point","coordinates":[5.751343,45.189514]}},{"type":"Feature","properties":{"marker-color":"red","marker-size":"small","name":"15c2b284e18be4a17f27f690a08ccf71"},"geometry":{"type":"Point","coordinates":[5.696411,45.195007]}},{"type":"Feature","properties":{"marker-color":"red","marker-size":"small","name":"0eed263cf59c4e5c781c06cd91955724"},"geometry":{"type":"Point","coordinates":[5.718384,45.195007]}},{"type":"Feature","properties":{"marker-color":"red","marker-size":"small","name":"afdfc0fd7760b2f76bed7ebe28aa781c"},"geometry":{"type":"Point","coordinates":[5.740356,45.195007]}},{"type":"Feature","properties":{"marker-color":"red","marker-size":"small","name":"b34ec23afcc399492c3212b31eee8f91"},"geometry":{"type":"Point","coordinates":[5.707397,45.205994]}},{"type":"Feature","properties":{"marker-color":"red","marker-size":"small","name":"5d12b86c4fe4e75f42d520c94399c0c2"},"geometry":{"type":"Point","coordinates":[5.652466,45.211487]}},{"type":"Feature","properties":{"marker-color":"red","marker-size":"small","name":"5985ad12bd2d0f8362bae0653ba224b9"},"geometry":{"type":"Point","coordinates":[5.751343,45.211487]}},{"type":"Feature","properties":{"marker-color":"red","marker-size":"small","name":"6ad29cf90c2e059b62740e12aabd340b"},"geometry":{"type":"Point","coordinates":[5.784302,45.211487]}},{"type":"Feature","properties":{"marker-color":"red","marker-size":"small","name":"5a324db99e972cf377d0c1bb3a872823"},"geometry":{"type":"Point","coordinates":[5.795288,45.211487]}},{"type":"Feature","properties":{"marker-color":"red","marker-size":"small","name":"48a47feb5295bf1c8164926c8b084983"},"geometry":{"type":"Point","coordinates":[6.487427,45.211487]}},{"type":"Feature","properties":{"marker-color":"red","marker-size":"small","name":"001f39ba99d0d14895b7e02c85a9734d"},"geometry":{"type":"Point","coordinates":[5.685425,45.222473]}},{"type":"Feature","properties":{"marker-color":"red","marker-size":"small","name":"937a66fa49b1f5f6344446bfee68f49b"},"geometry":{"type":"Point","coordinates":[5.652466,45.277405]}},{"type":"Feature","properties":{"marker-color":"red","marker-size":"small","name":"41e60a04e379ca6c02679720c864af2f"},"geometry":{"type":"Point","coordinates":[5.586548,45.343323]}},{"type":"Feature","properties":{"marker-color":"red","marker-size":"small","name":"e9d139abf7456efeb2c0d858e0341dad"},"geometry":{"type":"Point","coordinates":[5.300903,45.568542]}},{"type":"Feature","properties":{"marker-color":"red","marker-size":"small","name":"1a838a98238e42879f707c2cbb720ab3"},"geometry":{"type":"Point","coordinates":[5.278931,45.596008]}},{"type":"Feature","properties":{"marker-color":"red","marker-size":"small","name":"b52cd16fcb2d46312fc9fd0f3213bbf0"},"geometry":{"type":"Point","coordinates":[5.300903,45.601501]}},{"type":"Feature","properties":{"marker-color":"red","marker-size":"small","name":"4f1776b2293eca3177272d377e4c3acc"},"geometry":{"type":"Point","coordinates":[5.015259,45.689392]}},{"type":"Feature","properties":{"marker-color":"red","marker-size":"small","name":"3dd34e4a545f5239dbd0dd73bef1ec8f"},"geometry":{"type":"Point","coordinates":[4.872437,45.694885]}},{"type":"Feature","properties":{"marker-color":"red","marker-size":"small","name":"6e8bb47316c11219f5369d2f2018292e"},"geometry":{"type":"Point","coordinates":[4.883423,45.700378]}},{"type":"Feature","properties":{"marker-color":"red","marker-size":"small","name":"d64f8af19b326e29a15a6eac6714f735"},"geometry":{"type":"Point","coordinates":[4.960327,45.705872]}},{"type":"Feature","properties":{"marker-color":"red","marker-size":"small","name":"c6c23fa2b7fe1d95ad534d3fe69be040"},"geometry":{"type":"Point","coordinates":[4.916382,45.711365]}},{"type":"Feature","properties":{"marker-color":"red","marker-size":"small","name":"dcd202a8754690933a9f2c432d1518e1"},"geometry":{"type":"Point","coordinates":[4.806519,45.722351]}},{"type":"Feature","properties":{"marker-color":"red","marker-size":"small","name":"90c3e38a94b1daf62676c989dee8dd4b"},"geometry":{"type":"Point","coordinates":[4.806519,45.727844]}},{"type":"Feature","properties":{"marker-color":"red","marker-size":"small","name":"26651e8705d4f2622536f8617a4d5216"},"geometry":{"type":"Point","coordinates":[4.861450,45.727844]}},{"type":"Feature","properties":{"marker-color":"red","marker-size":"small","name":"edfb73edf620aa6cff8bbfb95c7a95c0"},"geometry":{"type":"Point","coordinates":[4.806519,45.733337]}},{"type":"Feature","properties":{"marker-color":"red","marker-size":"small","name":"3e4f104fc838dc4f8ea74da30f85bcf9"},"geometry":{"type":"Point","coordinates":[4.806519,45.738831]}},{"type":"Feature","properties":{"marker-color":"red","marker-size":"small","name":"df84c9603d5dc729a7ed64ea377a0dd2"},"geometry":{"type":"Point","coordinates":[4.828491,45.738831]}},{"type":"Feature","properties":{"marker-color":"red","marker-size":"small","name":"8493c080fe2c993b4c16907fb8caa40a"},"geometry":{"type":"Point","coordinates":[4.861450,45.738831]}},{"type":"Feature","properties":{"marker-color":"red","marker-size":"small","name":"3cb87156975fd2aa4bc2271df1c76f5d"},"geometry":{"type":"Point","coordinates":[4.850464,45.749817]}},{"type":"Feature","properties":{"marker-color":"red","marker-size":"small","name":"e5194f168193b5d9ffc6636524e879ac"},"geometry":{"type":"Point","coordinates":[4.861450,45.749817]}},{"type":"Feature","properties":{"marker-color":"red","marker-size":"small","name":"8ffb04348b515e103e42a5cc664aa476"},"geometry":{"type":"Point","coordinates":[4.905396,45.749817]}},{"type":"Feature","properties":{"marker-color":"red","marker-size":"small","name":"1ed7721219ba5dc6f37ed935e6556a99"},"geometry":{"type":"Point","coordinates":[4.927368,45.749817]}},{"type":"Feature","properties":{"marker-color":"red","marker-size":"small","name":"a14000281daf1cede742422a7c5484a3"},"geometry":{"type":"Point","coordinates":[4.850464,45.755310]}},{"type":"Feature","properties":{"marker-color":"red","marker-size":"small","name":"304fc618cbf7a08fc354c2626e6adfd4"},"geometry":{"type":"Point","coordinates":[4.872437,45.755310]}},{"type":"Feature","properties":{"marker-color":"red","marker-size":"small","name":"0df06de18323585f8f80d5a6f6e2017d"},"geometry":{"type":"Point","coordinates":[4.817505,45.760803]}},{"type":"Feature","properties":{"marker-color":"red","marker-size":"small","name":"2d27a733699c9bada125be4418936aa4"},"geometry":{"type":"Point","coordinates":[4.861450,45.760803]}},{"type":"Feature","properties":{"marker-color":"red","marker-size":"small","name":"dcb56290faacb3d0586fe82695495949"},"geometry":{"type":"Point","coordinates":[4.872437,45.760803]}},{"type":"Feature","properties":{"marker-color":"red","marker-size":"small","name":"e37a4445ba3ad3c537d34b1a8f74e0f2"},"geometry":{"type":"Point","coordinates":[4.894409,45.760803]}},{"type":"Feature","properties":{"marker-color":"red","marker-size":"small","name":"7552d1d8cc89043d5c393b2b8417c0b9"},"geometry":{"type":"Point","coordinates":[4.971313,45.766296]}},{"type":"Feature","properties":{"marker-color":"red","marker-size":"small","name":"f3c99eaedc1eedf4d10a438cd0b23d8a"},"geometry":{"type":"Point","coordinates":[4.993286,45.766296]}},{"type":"Feature","properties":{"marker-color":"red","marker-size":"small","name":"035f6c3a0c157400863f47ed2292d838"},"geometry":{"type":"Point","coordinates":[4.828491,45.771790]}},{"type":"Feature","properties":{"marker-color":"red","marker-size":"small","name":"75aaef678bbe24cbed1fa0156efa5856"},"geometry":{"type":"Point","coordinates":[4.883423,45.771790]}},{"type":"Feature","properties":{"marker-color":"red","marker-size":"small","name":"e5a653f4de6a78e596ccf216752f7e8c"},"geometry":{"type":"Point","coordinates":[4.685669,45.777283]}},{"type":"Feature","properties":{"marker-color":"red","marker-size":"small","name":"d85da28c0e12ec2aa9a38c3cc9f57215"},"geometry":{"type":"Point","coordinates":[4.817505,45.777283]}},{"type":"Feature","properties":{"marker-color":"red","marker-size":"small","name":"973e649194b88c0effe415373c86bf4b"},"geometry":{"type":"Point","coordinates":[4.872437,45.777283]}},{"type":"Feature","properties":{"marker-color":"red","marker-size":"small","name":"63dee235e6c24ff5e20cfe2b9b85f3c5"},"geometry":{"type":"Point","coordinates":[4.894409,45.777283]}},{"type":"Feature","properties":{"marker-color":"red","marker-size":"small","name":"7889bd861b732004611bac39cf456293"},"geometry":{"type":"Point","coordinates":[4.795532,45.782776]}},{"type":"Feature","properties":{"marker-color":"red","marker-size":"small","name":"5703f198d7f5f45c6db1ac7efd79e87d"},"geometry":{"type":"Point","coordinates":[4.828491,45.782776]}},{"type":"Feature","properties":{"marker-color":"red","marker-size":"small","name":"4e6e85e078ebec61a40d9cc7fe3dd613"},"geometry":{"type":"Point","coordinates":[4.839478,45.782776]}},{"type":"Feature","properties":{"marker-color":"red","marker-size":"small","name":"f2b294b0d74d6e95d726ad0589c19f6c"},"geometry":{"type":"Point","coordinates":[4.872437,45.782776]}},{"type":"Feature","properties":{"marker-color":"red","marker-size":"small","name":"1a2d519c6f6e643cf6184f93994c27d6"},"geometry":{"type":"Point","coordinates":[4.883423,45.782776]}},{"type":"Feature","properties":{"marker-color":"red","marker-size":"small","name":"24dfc37b1b5277ed5bb3684d67b72563"},"geometry":{"type":"Point","coordinates":[4.806519,45.788269]}},{"type":"Feature","properties":{"marker-color":"red","marker-size":"small","name":"1a5c99edaaac970ab14c2685fdc1c271"},"geometry":{"type":"Point","coordinates":[4.806519,45.793762]}},{"type":"Feature","properties":{"marker-color":"red","marker-size":"small","name":"0289ca82dc2e906e0e94ef7ff8755a3b"},"geometry":{"type":"Point","coordinates":[4.806519,45.799255]}},{"type":"Feature","properties":{"marker-color":"red","marker-size":"small","name":"737e28154e82eb61f67efafcd046bd16"},"geometry":{"type":"Point","coordinates":[4.850464,45.804749]}},{"type":"Feature","properties":{"marker-color":"red","marker-size":"small","name":"9316907d08ffc9bb4996ed2ddc499797"},"geometry":{"type":"Point","coordinates":[4.861450,45.804749]}},{"type":"Feature","properties":{"marker-color":"red","marker-size":"small","name":"d98fee73d3b2e1c8f30fea9f150e1831"},"geometry":{"type":"Point","coordinates":[4.894409,45.810242]}},{"type":"Feature","properties":{"marker-color":"red","marker-size":"small","name":"a7f04e40ce0662be06b9c78b0bf749e7"},"geometry":{"type":"Point","coordinates":[4.795532,45.815735]}},{"type":"Feature","properties":{"marker-color":"red","marker-size":"small","name":"f4d41f85dc228c97f6899a14f68b177b"},"geometry":{"type":"Point","coordinates":[4.894409,45.815735]}},{"type":"Feature","properties":{"marker-color":"red","marker-size":"small","name":"9f5a2978fc4bcf94631154f91d3f0e85"},"geometry":{"type":"Point","coordinates":[4.905396,45.815735]}},{"type":"Feature","properties":{"marker-color":"red","marker-size":"small","name":"1bfa96bb09a4c9fc409414acf20042ce"},"geometry":{"type":"Point","coordinates":[4.960327,45.821228]}},{"type":"Feature","properties":{"marker-color":"red","marker-size":"small","name":"5ab677f9cfc044df70003e36f6968dd7"},"geometry":{"type":"Point","coordinates":[4.751587,45.854187]}},{"type":"Feature","properties":{"marker-color":"red","marker-size":"small","name":"dee19e4e071a5313250b32853c05b363"},"geometry":{"type":"Point","coordinates":[4.696655,45.914612]}},{"type":"Feature","properties":{"marker-color":"red","marker-size":"small","name":"f6e1175b219e64c6c4ca6cdf32c0a95e"},"geometry":{"type":"Point","coordinates":[2.323608,48.677673]}},{"type":"Feature","properties":{"marker-color":"red","marker-size":"small","name":"eac3e884a998f33fb172f783386cf468"},"geometry":{"type":"Point","coordinates":[2.367554,48.688660]}},{"type":"Feature","properties":{"marker-color":"red","marker-size":"small","name":"829a65583271ae4d8e26461e2800aa94"},"geometry":{"type":"Point","coordinates":[2.224731,48.699646]}},{"type":"Feature","properties":{"marker-color":"red","marker-size":"small","name":"faccd4afd2bb845164de264c7886d6da"},"geometry":{"type":"Point","coordinates":[2.224731,48.705139]}},{"type":"Feature","properties":{"marker-color":"red","marker-size":"small","name":"4625e895e14b12ce953fdb320e90f291"},"geometry":{"type":"Point","coordinates":[2.323608,48.705139]}},{"type":"Feature","properties":{"marker-color":"red","marker-size":"small","name":"c7e6469fdee6706a440c35655e1ddf22"},"geometry":{"type":"Point","coordinates":[2.246704,48.710632]}},{"type":"Feature","properties":{"marker-color":"red","marker-size":"small","name":"0d56d3cc3c8659a7993352d00a35736a"},"geometry":{"type":"Point","coordinates":[2.411499,48.721619]}},{"type":"Feature","properties":{"marker-color":"red","marker-size":"small","name":"b28d554d468db87a498d5745484f3cc1"},"geometry":{"type":"Point","coordinates":[2.268677,48.727112]}},{"type":"Feature","properties":{"marker-color":"red","marker-size":"small","name":"f47dfd6b933c472f62c1954448aa0802"},"geometry":{"type":"Point","coordinates":[2.202759,48.732605]}},{"type":"Feature","properties":{"marker-color":"red","marker-size":"small","name":"a12201320d5dec7e6a5cf3d38e11ac68"},"geometry":{"type":"Point","coordinates":[2.235718,48.732605]}},{"type":"Feature","properties":{"marker-color":"red","marker-size":"small","name":"c1f22e99f5a5ee4a0ca7daea0e33fe39"},"geometry":{"type":"Point","coordinates":[2.257690,48.732605]}},{"type":"Feature","properties":{"marker-color":"red","marker-size":"small","name":"ab52e42085b1c27b5079565fb61a3c46"},"geometry":{"type":"Point","coordinates":[2.290649,48.732605]}},{"type":"Feature","properties":{"marker-color":"red","marker-size":"small","name":"bee724052443e05336b498a5359afdf0"},"geometry":{"type":"Point","coordinates":[2.268677,48.738098]}},{"type":"Feature","properties":{"marker-color":"red","marker-size":"small","name":"7b60cfddd9a987f52a266fc32559e54e"},"geometry":{"type":"Point","coordinates":[2.301636,48.738098]}},{"type":"Feature","properties":{"marker-color":"red","marker-size":"small","name":"f71ec716f40ec8e7f5f424ffe231ead1"},"geometry":{"type":"Point","coordinates":[2.279663,48.743591]}},{"type":"Feature","properties":{"marker-color":"red","marker-size":"small","name":"1ce12c570f42e4b78452d4a80e97c94b"},"geometry":{"type":"Point","coordinates":[2.290649,48.743591]}},{"type":"Feature","properties":{"marker-color":"red","marker-size":"small","name":"00cca35208c232a3b5bf274639a66968"},"geometry":{"type":"Point","coordinates":[2.312622,48.743591]}},{"type":"Feature","properties":{"marker-color":"red","marker-size":"small","name":"5244cc764e135a7804faf5b10c7ad245"},"geometry":{"type":"Point","coordinates":[2.290649,48.754578]}},{"type":"Feature","properties":{"marker-color":"red","marker-size":"small","name":"1b1bcc393ccfdb8f74b695b2ea44d4cc"},"geometry":{"type":"Point","coordinates":[2.301636,48.754578]}},{"type":"Feature","properties":{"marker-color":"red","marker-size":"small","name":"9e6520a9f943a3f9b1e2b6d04c3d790e"},"geometry":{"type":"Point","coordinates":[2.334595,48.760071]}},{"type":"Feature","properties":{"marker-color":"red","marker-size":"small","name":"33a94b81d508e416e5bb1175741a7f78"},"geometry":{"type":"Point","coordinates":[2.257690,48.765564]}},{"type":"Feature","properties":{"marker-color":"red","marker-size":"small","name":"3a685639198ef97ffdc2917f7047bb84"},"geometry":{"type":"Point","coordinates":[2.312622,48.765564]}},{"type":"Feature","properties":{"marker-color":"red","marker-size":"small","name":"6715f012d8f129a72033ba6732f22e31"},"geometry":{"type":"Point","coordinates":[2.488403,48.771057]}},{"type":"Feature","properties":{"marker-color":"red","marker-size":"small","name":"ec48465c225bc45372b67404cfd7859f"},"geometry":{"type":"Point","coordinates":[2.070923,48.776550]}},{"type":"Feature","properties":{"marker-color":"red","marker-size":"small","name":"92cfd15e9723e404a219c2841f46effd"},"geometry":{"type":"Point","coordinates":[2.169800,48.782043]}},{"type":"Feature","properties":{"marker-color":"red","marker-size":"small","name":"e0e3d79a960bd22ae3207fec57aee22f"},"geometry":{"type":"Point","coordinates":[2.323608,48.782043]}},{"type":"Feature","properties":{"marker-color":"red","marker-size":"small","name":"1e9f1368029a2e9c59a9afd162765880"},"geometry":{"type":"Point","coordinates":[2.301636,48.787537]}},{"type":"Feature","properties":{"marker-color":"red","marker-size":"small","name":"5b456415fb773c915ce313890e483579"},"geometry":{"type":"Point","coordinates":[2.323608,48.787537]}},{"type":"Feature","properties":{"marker-color":"red","marker-size":"small","name":"30a2efceb30b70782f8de747bc35e883"},"geometry":{"type":"Point","coordinates":[2.334595,48.787537]}},{"type":"Feature","properties":{"marker-color":"red","marker-size":"small","name":"423a13f974d03531b63a1644119c37cf"},"geometry":{"type":"Point","coordinates":[2.356567,48.787537]}},{"type":"Feature","properties":{"marker-color":"red","marker-size":"small","name":"78d666033e68a49778f8ce3ea7fb3832"},"geometry":{"type":"Point","coordinates":[2.290649,48.793030]}},{"type":"Feature","properties":{"marker-color":"red","marker-size":"small","name":"b5fb08e06afc7eee4c65e4c26af0df6f"},"geometry":{"type":"Point","coordinates":[2.312622,48.793030]}},{"type":"Feature","properties":{"marker-color":"red","marker-size":"small","name":"52780a790e8d9833dc18c67ca6d2272a"},"geometry":{"type":"Point","coordinates":[2.312622,48.798523]}},{"type":"Feature","properties":{"marker-color":"red","marker-size":"small","name":"e018dce0e5a2f51efd33b73050eb605e"},"geometry":{"type":"Point","coordinates":[2.323608,48.804016]}},{"type":"Feature","properties":{"marker-color":"red","marker-size":"small","name":"18d8e0d85a1b40e91e503c18514056f8"},"geometry":{"type":"Point","coordinates":[2.356567,48.804016]}},{"type":"Feature","properties":{"marker-color":"red","marker-size":"small","name":"a717c85fb21e9978c860bb45909644ea"},"geometry":{"type":"Point","coordinates":[2.070923,48.809509]}},{"type":"Feature","properties":{"marker-color":"red","marker-size":"small","name":"9c8f00e15abe8f519e26408085cc63f0"},"geometry":{"type":"Point","coordinates":[2.323608,48.809509]}},{"type":"Feature","properties":{"marker-color":"red","marker-size":"small","name":"8a1d1a8bbcf143a7259f23cb728f351d"},"geometry":{"type":"Point","coordinates":[2.378540,48.809509]}},{"type":"Feature","properties":{"marker-color":"red","marker-size":"small","name":"0333a02e541e5b0067b35665b0c550a9"},"geometry":{"type":"Point","coordinates":[2.147827,48.815002]}},{"type":"Feature","properties":{"marker-color":"red","marker-size":"small","name":"56f94db909e86ab7481427b95fdb24f8"},"geometry":{"type":"Point","coordinates":[2.268677,48.815002]}},{"type":"Feature","properties":{"marker-color":"red","marker-size":"small","name":"9071c1e95ada9cb6da6cbb4171c0f88f"},"geometry":{"type":"Point","coordinates":[2.334595,48.815002]}},{"type":"Feature","properties":{"marker-color":"red","marker-size":"small","name":"65bd9aeace87f19e4fceacca9233d4bb"},"geometry":{"type":"Point","coordinates":[2.367554,48.815002]}},{"type":"Feature","properties":{"marker-color":"red","marker-size":"small","name":"bec9e6036ce7ac0487a63c91cab7349d"},"geometry":{"type":"Point","coordinates":[2.356567,48.820496]}},{"type":"Feature","properties":{"marker-color":"red","marker-size":"small","name":"68cfb16b37508a257189e9c490a2d077"},"geometry":{"type":"Point","coordinates":[2.323608,48.825989]}},{"type":"Feature","properties":{"marker-color":"red","marker-size":"small","name":"78bbf7a4939f8809520891a14e402d17"},"geometry":{"type":"Point","coordinates":[2.323608,48.831482]}},{"type":"Feature","properties":{"marker-color":"red","marker-size":"small","name":"413d1ebfef2f186cac7c9aea0cbc5e69"},"geometry":{"type":"Point","coordinates":[2.345581,48.831482]}},{"type":"Feature","properties":{"marker-color":"red","marker-size":"small","name":"7f39312289cc80251b6b7429648f041a"},"geometry":{"type":"Point","coordinates":[2.356567,48.831482]}},{"type":"Feature","properties":{"marker-color":"red","marker-size":"small","name":"26917449ebc59cfd3f40c6649bd29bcf"},"geometry":{"type":"Point","coordinates":[2.125854,48.836975]}},{"type":"Feature","properties":{"marker-color":"red","marker-size":"small","name":"c202cc1f2134a05c5fcf3d17da3c9c31"},"geometry":{"type":"Point","coordinates":[2.323608,48.836975]}},{"type":"Feature","properties":{"marker-color":"red","marker-size":"small","name":"98ecc7e5feafba2c474a8090322b78e9"},"geometry":{"type":"Point","coordinates":[2.334595,48.836975]}},{"type":"Feature","properties":{"marker-color":"red","marker-size":"small","name":"8ad32d5e144d7cf9317f5ebf61888482"},"geometry":{"type":"Point","coordinates":[2.345581,48.836975]}},{"type":"Feature","properties":{"marker-color":"red","marker-size":"small","name":"e07ee0191dd6020ef7fa501f46756314"},"geometry":{"type":"Point","coordinates":[2.356567,48.836975]}},{"type":"Feature","properties":{"marker-color":"red","marker-size":"small","name":"8e30488604c8d160b1583d909f681ad6"},"geometry":{"type":"Point","coordinates":[2.268677,48.842468]}},{"type":"Feature","properties":{"marker-color":"red","marker-size":"small","name":"27cf99fbc0329e508afe360bd65876cc"},"geometry":{"type":"Point","coordinates":[2.301636,48.842468]}},{"type":"Feature","properties":{"marker-color":"red","marker-size":"small","name":"da7aa245c9b2877ed14a2170af446ac4"},"geometry":{"type":"Point","coordinates":[2.312622,48.842468]}},{"type":"Feature","properties":{"marker-color":"red","marker-size":"small","name":"bb718abae31babd26103e123ef01ad23"},"geometry":{"type":"Point","coordinates":[2.323608,48.842468]}},{"type":"Feature","properties":{"marker-color":"red","marker-size":"small","name":"2c7e177e7ab11c247effcf73fbc1a5ce"},"geometry":{"type":"Point","coordinates":[2.334595,48.842468]}},{"type":"Feature","properties":{"marker-color":"red","marker-size":"small","name":"7352c724d8e700db9e7eb121189c069f"},"geometry":{"type":"Point","coordinates":[2.279663,48.847961]}},{"type":"Feature","properties":{"marker-color":"red","marker-size":"small","name":"c4cad86ce6e4bec0520dca6f8066f848"},"geometry":{"type":"Point","coordinates":[2.301636,48.847961]}},{"type":"Feature","properties":{"marker-color":"red","marker-size":"small","name":"cd504d105080054ff321a59c69227576"},"geometry":{"type":"Point","coordinates":[2.323608,48.847961]}},{"type":"Feature","properties":{"marker-color":"red","marker-size":"small","name":"e4e999fd4fd18400c936707835eabaa9"},"geometry":{"type":"Point","coordinates":[2.334595,48.847961]}},{"type":"Feature","properties":{"marker-color":"red","marker-size":"small","name":"90bc7cb80a8a95459310e969a9069764"},"geometry":{"type":"Point","coordinates":[2.345581,48.847961]}},{"type":"Feature","properties":{"marker-color":"red","marker-size":"small","name":"191998fd6f22a732e496b8f9ac7ccac5"},"geometry":{"type":"Point","coordinates":[2.213745,48.853455]}},{"type":"Feature","properties":{"marker-color":"red","marker-size":"small","name":"f2c341934e2621f4d1ced5d8d419c73a"},"geometry":{"type":"Point","coordinates":[2.279663,48.853455]}},{"type":"Feature","properties":{"marker-color":"red","marker-size":"small","name":"e45f26587d9f8e6c918a0c8d22ed05df"},"geometry":{"type":"Point","coordinates":[2.290649,48.853455]}},{"type":"Feature","properties":{"marker-color":"red","marker-size":"small","name":"68fc837c772770a7e70c8de25410efaa"},"geometry":{"type":"Point","coordinates":[2.334595,48.853455]}},{"type":"Feature","properties":{"marker-color":"red","marker-size":"small","name":"ac64682f03179906ac40fb6d8f325a31"},"geometry":{"type":"Point","coordinates":[2.411499,48.853455]}},{"type":"Feature","properties":{"marker-color":"red","marker-size":"small","name":"b0eb6ca94b1431f063c589a8b33605d3"},"geometry":{"type":"Point","coordinates":[2.213745,48.858948]}},{"type":"Feature","properties":{"marker-color":"red","marker-size":"small","name":"24f03b815cf83fbb066975170b3f9d43"},"geometry":{"type":"Point","coordinates":[2.246704,48.858948]}},{"type":"Feature","properties":{"marker-color":"red","marker-size":"small","name":"f2dfa76d0e037f4b4dd3f6ff9040b3cd"},"geometry":{"type":"Point","coordinates":[2.279663,48.858948]}},{"type":"Feature","properties":{"marker-color":"red","marker-size":"small","name":"04d24fe3864177f3e95d54ec472df17d"},"geometry":{"type":"Point","coordinates":[2.301636,48.858948]}},{"type":"Feature","properties":{"marker-color":"red","marker-size":"small","name":"c8edfdec271de0e4b176aa719668342a"},"geometry":{"type":"Point","coordinates":[2.312622,48.858948]}},{"type":"Feature","properties":{"marker-color":"red","marker-size":"small","name":"c3e0ca1ef2dd25fa43cfabbe5c836c5f"},"geometry":{"type":"Point","coordinates":[2.323608,48.858948]}},{"type":"Feature","properties":{"marker-color":"red","marker-size":"small","name":"a6e23c89b9ba7be0327c71af412ef48c"},"geometry":{"type":"Point","coordinates":[2.224731,48.864441]}},{"type":"Feature","properties":{"marker-color":"red","marker-size":"small","name":"61f0df94f4b7b009853a4280f636341e"},"geometry":{"type":"Point","coordinates":[2.301636,48.864441]}},{"type":"Feature","properties":{"marker-color":"red","marker-size":"small","name":"568f92bd24280bc9c778ff9d08e8abef"},"geometry":{"type":"Point","coordinates":[2.323608,48.864441]}},{"type":"Feature","properties":{"marker-color":"red","marker-size":"small","name":"24e7b2b589e732a8df6d84177e7af498"},"geometry":{"type":"Point","coordinates":[2.345581,48.864441]}},{"type":"Feature","properties":{"marker-color":"red","marker-size":"small","name":"5ed2e8bcc6d514229d1a26436ef9b1a0"},"geometry":{"type":"Point","coordinates":[2.367554,48.864441]}},{"type":"Feature","properties":{"marker-color":"red","marker-size":"small","name":"a3e3a3e6199df060e3c42152dc36cb7e"},"geometry":{"type":"Point","coordinates":[2.378540,48.864441]}},{"type":"Feature","properties":{"marker-color":"red","marker-size":"small","name":"5d3a072a628d44c9f6d8a1ee51885af1"},"geometry":{"type":"Point","coordinates":[2.422485,48.864441]}},{"type":"Feature","properties":{"marker-color":"red","marker-size":"small","name":"53091e489ec09de53d97f2e06aba877a"},"geometry":{"type":"Point","coordinates":[2.290649,48.869934]}},{"type":"Feature","properties":{"marker-color":"red","marker-size":"small","name":"ad26b409e80e1eb71df369f7d04b8eb6"},"geometry":{"type":"Point","coordinates":[2.301636,48.869934]}},{"type":"Feature","properties":{"marker-color":"red","marker-size":"small","name":"eef745ae132652bb48515da876b38295"},"geometry":{"type":"Point","coordinates":[2.334595,48.869934]}},{"type":"Feature","properties":{"marker-color":"red","marker-size":"small","name":"8c72c154fa8d710fbcaa6ba2bcffa6d8"},"geometry":{"type":"Point","coordinates":[2.367554,48.869934]}},{"type":"Feature","properties":{"marker-color":"red","marker-size":"small","name":"f744a8f0668d075e7289564a07f7b995"},"geometry":{"type":"Point","coordinates":[2.378540,48.869934]}},{"type":"Feature","properties":{"marker-color":"red","marker-size":"small","name":"3d713cb6fae0091812a0bc750bd41ca8"},"geometry":{"type":"Point","coordinates":[2.411499,48.869934]}},{"type":"Feature","properties":{"marker-color":"red","marker-size":"small","name":"0a62730eea7e365939e204f1052b7f9b"},"geometry":{"type":"Point","coordinates":[2.246704,48.875427]}},{"type":"Feature","properties":{"marker-color":"red","marker-size":"small","name":"b97d35ff56b9607564cde0f65e0d2f90"},"geometry":{"type":"Point","coordinates":[2.290649,48.875427]}},{"type":"Feature","properties":{"marker-color":"red","marker-size":"small","name":"9dc5e3de2b3eb3699c41c0b829946865"},"geometry":{"type":"Point","coordinates":[2.312622,48.875427]}},{"type":"Feature","properties":{"marker-color":"red","marker-size":"small","name":"bbc5cff52e63ca17d1a2068ff57fc10d"},"geometry":{"type":"Point","coordinates":[2.334595,48.875427]}},{"type":"Feature","properties":{"marker-color":"red","marker-size":"small","name":"30b4075b84f1715b7b8891162c1a7330"},"geometry":{"type":"Point","coordinates":[2.345581,48.875427]}},{"type":"Feature","properties":{"marker-color":"red","marker-size":"small","name":"e07044ff26f07723b127bf9f5f49851a"},"geometry":{"type":"Point","coordinates":[2.356567,48.875427]}},{"type":"Feature","properties":{"marker-color":"red","marker-size":"small","name":"58d5720a8c945c75a160a64d95046dd8"},"geometry":{"type":"Point","coordinates":[2.367554,48.875427]}},{"type":"Feature","properties":{"marker-color":"red","marker-size":"small","name":"eb910cf64e9cb1516a817248de7826a3"},"geometry":{"type":"Point","coordinates":[2.378540,48.875427]}},{"type":"Feature","properties":{"marker-color":"red","marker-size":"small","name":"95651265997fb5faaaae1f743fbd92fb"},"geometry":{"type":"Point","coordinates":[2.400513,48.875427]}},{"type":"Feature","properties":{"marker-color":"red","marker-size":"small","name":"05130257e4bbd16e7cbbe7c849529e41"},"geometry":{"type":"Point","coordinates":[2.268677,48.880920]}},{"type":"Feature","properties":{"marker-color":"red","marker-size":"small","name":"03251076f3d6081cecfdd942a66bae8e"},"geometry":{"type":"Point","coordinates":[2.301636,48.880920]}},{"type":"Feature","properties":{"marker-color":"red","marker-size":"small","name":"fdc0de1368e387689097a03b1bce95b3"},"geometry":{"type":"Point","coordinates":[2.312622,48.880920]}},{"type":"Feature","properties":{"marker-color":"red","marker-size":"small","name":"bb3443c7535ff8d789900e9013d6068c"},"geometry":{"type":"Point","coordinates":[2.334595,48.880920]}},{"type":"Feature","properties":{"marker-color":"red","marker-size":"small","name":"40add82b26ee0723d2c3f3b0cdae6b31"},"geometry":{"type":"Point","coordinates":[2.345581,48.880920]}},{"type":"Feature","properties":{"marker-color":"red","marker-size":"small","name":"48a9ef96e7761d03f1406dffadfb0654"},"geometry":{"type":"Point","coordinates":[2.367554,48.880920]}},{"type":"Feature","properties":{"marker-color":"red","marker-size":"small","name":"ff95f40df94ba3d063cf7d6a0439f44f"},"geometry":{"type":"Point","coordinates":[2.400513,48.880920]}},{"type":"Feature","properties":{"marker-color":"red","marker-size":"small","name":"62b757139b7c047421633c8e0819e393"},"geometry":{"type":"Point","coordinates":[2.235718,48.886414]}},{"type":"Feature","properties":{"marker-color":"red","marker-size":"small","name":"acc284f402fe0cbfd690f2ed01bd856a"},"geometry":{"type":"Point","coordinates":[2.268677,48.886414]}},{"type":"Feature","properties":{"marker-color":"red","marker-size":"small","name":"a4c5f540aa9067b790a3d43f2b2f35a9"},"geometry":{"type":"Point","coordinates":[2.279663,48.886414]}},{"type":"Feature","properties":{"marker-color":"red","marker-size":"small","name":"cca28d1f93d262583c38f0455cb86a6e"},"geometry":{"type":"Point","coordinates":[2.323608,48.886414]}},{"type":"Feature","properties":{"marker-color":"red","marker-size":"small","name":"2e9b0625cc469b197309b43343adbd20"},"geometry":{"type":"Point","coordinates":[2.334595,48.886414]}},{"type":"Feature","properties":{"marker-color":"red","marker-size":"small","name":"6b191a269949c02479853f11128c1462"},"geometry":{"type":"Point","coordinates":[2.345581,48.886414]}},{"type":"Feature","properties":{"marker-color":"red","marker-size":"small","name":"7e68e60a7e71620b141b464f8615ba0c"},"geometry":{"type":"Point","coordinates":[2.378540,48.886414]}},{"type":"Feature","properties":{"marker-color":"red","marker-size":"small","name":"598e68f1ef09ae723f175c45bb3273ba"},"geometry":{"type":"Point","coordinates":[2.389526,48.886414]}},{"type":"Feature","properties":{"marker-color":"red","marker-size":"small","name":"a7dee8fc0594445f4866782f038ce5b3"},"geometry":{"type":"Point","coordinates":[2.279663,48.891907]}},{"type":"Feature","properties":{"marker-color":"red","marker-size":"small","name":"d97fdd33485ca43122d06e640bb84fc3"},"geometry":{"type":"Point","coordinates":[2.323608,48.891907]}},{"type":"Feature","properties":{"marker-color":"red","marker-size":"small","name":"c1998191b2ffcaaab29fa91f10b6b2eb"},"geometry":{"type":"Point","coordinates":[2.378540,48.891907]}},{"type":"Feature","properties":{"marker-color":"red","marker-size":"small","name":"6a6f72e448be09463eb0a432dff3d681"},"geometry":{"type":"Point","coordinates":[2.411499,48.891907]}},{"type":"Feature","properties":{"marker-color":"red","marker-size":"small","name":"049ceb20734b0e62dbd3e89dd779ec62"},"geometry":{"type":"Point","coordinates":[2.268677,48.897400]}},{"type":"Feature","properties":{"marker-color":"red","marker-size":"small","name":"93dfcb605bf0d8be256b24d39c25d290"},"geometry":{"type":"Point","coordinates":[2.279663,48.897400]}},{"type":"Feature","properties":{"marker-color":"red","marker-size":"small","name":"b5952cb7096c99b3636e00e9526b853b"},"geometry":{"type":"Point","coordinates":[2.323608,48.897400]}},{"type":"Feature","properties":{"marker-color":"red","marker-size":"small","name":"bdfe93af13ef98ddaec08a6b530b9908"},"geometry":{"type":"Point","coordinates":[2.411499,48.902893]}},{"type":"Feature","properties":{"marker-color":"red","marker-size":"small","name":"959d00324f06229143b663717840b4ae"},"geometry":{"type":"Point","coordinates":[2.279663,48.908386]}},{"type":"Feature","properties":{"marker-color":"red","marker-size":"small","name":"77a36b6ab453db574cef761d08eeaf8d"},"geometry":{"type":"Point","coordinates":[2.367554,48.908386]}},{"type":"Feature","properties":{"marker-color":"red","marker-size":"small","name":"301e0e886141be3e2fc5cbeec871a0c3"},"geometry":{"type":"Point","coordinates":[2.389526,48.913879]}},{"type":"Feature","properties":{"marker-color":"red","marker-size":"small","name":"26e0d2bf9c72fe8cd56c717b254e9f0a"},"geometry":{"type":"Point","coordinates":[2.257690,48.919373]}},{"type":"Feature","properties":{"marker-color":"red","marker-size":"small","name":"ec49030caa166529dcd5cf4de0144e04"},"geometry":{"type":"Point","coordinates":[2.301636,48.919373]}},{"type":"Feature","properties":{"marker-color":"red","marker-size":"small","name":"8d4a4e67d7793082f94a08c163ac4268"},"geometry":{"type":"Point","coordinates":[2.400513,48.919373]}},{"type":"Feature","properties":{"marker-color":"red","marker-size":"small","name":"6bcaf13c6c3e2fa73f098d76a4265959"},"geometry":{"type":"Point","coordinates":[2.444458,48.924866]}},{"type":"Feature","properties":{"marker-color":"red","marker-size":"small","name":"476e86e743e0d8eaaafa262e54aba4f1"},"geometry":{"type":"Point","coordinates":[2.136841,48.935852]}},{"type":"Feature","properties":{"marker-color":"red","marker-size":"small","name":"5079cf83baeb31b55d19fc99be636f07"},"geometry":{"type":"Point","coordinates":[8.618774,49.869690]}},{"type":"Feature","properties":{"marker-color":"red","marker-size":"small","name":"a3f2b8f038d3e8aab8f048f69a6049e0"},"geometry":{"type":"Point","coordinates":[8.464966,49.930115]}},{"type":"Feature","properties":{"marker-color":"red","marker-size":"small","name":"43bdb8b67ba4f766e04f8a69c560faa2"},"geometry":{"type":"Point","coordinates":[8.322144,49.935608]}},{"type":"Feature","properties":{"marker-color":"red","marker-size":"small","name":"8ff67a16bb263d424601be748aa33383"},"geometry":{"type":"Point","coordinates":[8.377075,49.935608]}},{"type":"Feature","properties":{"marker-color":"red","marker-size":"small","name":"619f820c2cc88013a91f246e3742e9e1"},"geometry":{"type":"Point","coordinates":[8.300171,49.957581]}},{"type":"Feature","properties":{"marker-color":"red","marker-size":"small","name":"911e4d208931ffaf5912bf6bafefa740"},"geometry":{"type":"Point","coordinates":[8.311157,49.957581]}},{"type":"Feature","properties":{"marker-color":"red","marker-size":"small","name":"b57d46757e245d3eb63479a6d5e626b7"},"geometry":{"type":"Point","coordinates":[8.442993,49.974060]}},{"type":"Feature","properties":{"marker-color":"red","marker-size":"small","name":"cb03525188f6adaf893c1399c6cf0a30"},"geometry":{"type":"Point","coordinates":[8.399048,49.979553]}},{"type":"Feature","properties":{"marker-color":"red","marker-size":"small","name":"3eabf55f33578fcec5a1443226d1177e"},"geometry":{"type":"Point","coordinates":[8.442993,49.990540]}},{"type":"Feature","properties":{"marker-color":"red","marker-size":"small","name":"2f454357bdf45782df42c77a7860b45d"},"geometry":{"type":"Point","coordinates":[8.289185,49.996033]}},{"type":"Feature","properties":{"marker-color":"red","marker-size":"small","name":"ea90e415fb06f8edf80e40a1b527bdd3"},"geometry":{"type":"Point","coordinates":[8.421021,49.996033]}},{"type":"Feature","properties":{"marker-color":"red","marker-size":"small","name":"00813914827c1e1854cac2d5776a04ab"},"geometry":{"type":"Point","coordinates":[8.432007,50.001526]}},{"type":"Feature","properties":{"marker-color":"red","marker-size":"small","name":"d2d2480eeb1b9e9fe15a41f2650e2fa2"},"geometry":{"type":"Point","coordinates":[8.442993,50.007019]}},{"type":"Feature","properties":{"marker-color":"red","marker-size":"small","name":"c90b32bc1d640000d4feecaa52901ca7"},"geometry":{"type":"Point","coordinates":[8.432007,50.018005]}},{"type":"Feature","properties":{"marker-color":"red","marker-size":"small","name":"859faf758d74a2bb43552644dc4fbba6"},"geometry":{"type":"Point","coordinates":[8.453979,50.018005]}},{"type":"Feature","properties":{"marker-color":"red","marker-size":"small","name":"52fcbf560ea61db67f42fb21f3aa7cfc"},"geometry":{"type":"Point","coordinates":[8.574829,50.023499]}},{"type":"Feature","properties":{"marker-color":"red","marker-size":"small","name":"498a988bdf983e92bf42e16577cec765"},"geometry":{"type":"Point","coordinates":[8.442993,50.045471]}},{"type":"Feature","properties":{"marker-color":"red","marker-size":"small","name":"2d03aa2aebc0e63da60f6ec75c57a815"},"geometry":{"type":"Point","coordinates":[8.673706,50.050964]}},{"type":"Feature","properties":{"marker-color":"red","marker-size":"small","name":"da01f786782df8ac12b632ce935cf6db"},"geometry":{"type":"Point","coordinates":[8.673706,50.056458]}},{"type":"Feature","properties":{"marker-color":"red","marker-size":"small","name":"34aa1830ab7a7749351a5a7264c72970"},"geometry":{"type":"Point","coordinates":[8.497925,50.067444]}},{"type":"Feature","properties":{"marker-color":"red","marker-size":"small","name":"fdec3f0f9cf5c5f20b043a4a0f00153c"},"geometry":{"type":"Point","coordinates":[8.530884,50.067444]}},{"type":"Feature","properties":{"marker-color":"red","marker-size":"small","name":"2dd8267bc649e255a02cd444729cc1cd"},"geometry":{"type":"Point","coordinates":[8.366089,50.078430]}},{"type":"Feature","properties":{"marker-color":"red","marker-size":"small","name":"908bf27450e85e8999b1674042ce8136"},"geometry":{"type":"Point","coordinates":[8.497925,50.078430]}},{"type":"Feature","properties":{"marker-color":"red","marker-size":"small","name":"d3be26a310d3193d7684f4ad668d2d6d"},"geometry":{"type":"Point","coordinates":[8.838501,50.078430]}},{"type":"Feature","properties":{"marker-color":"red","marker-size":"small","name":"6d96ab70cdad572472b77a8de1c31b88"},"geometry":{"type":"Point","coordinates":[8.475952,50.089417]}},{"type":"Feature","properties":{"marker-color":"red","marker-size":"small","name":"5836e0fe503271fa6893921bb88b317a"},"geometry":{"type":"Point","coordinates":[8.794556,50.105896]}},{"type":"Feature","properties":{"marker-color":"red","marker-size":"small","name":"0577621f8aa07505e1963468e0e5d0bd"},"geometry":{"type":"Point","coordinates":[8.607788,50.111389]}},{"type":"Feature","properties":{"marker-color":"red","marker-size":"small","name":"f32fa3d31775fa0038ed28458b518215"},"geometry":{"type":"Point","coordinates":[8.651733,50.122375]}},{"type":"Feature","properties":{"marker-color":"red","marker-size":"small","name":"b1361bf1449b77fe26fc58ecec27b286"},"geometry":{"type":"Point","coordinates":[9.135132,50.127869]}},{"type":"Feature","properties":{"marker-color":"red","marker-size":"small","name":"f99b65bb59b110cfb96c6bb03e2759b6"},"geometry":{"type":"Point","coordinates":[8.432007,50.133362]}},{"type":"Feature","properties":{"marker-color":"red","marker-size":"small","name":"feff0287dbdd3cb5fd02456c0df663db"},"geometry":{"type":"Point","coordinates":[8.519897,50.133362]}},{"type":"Feature","properties":{"marker-color":"red","marker-size":"small","name":"e5c2ce2469a63da1fecffd11e65d8978"},"geometry":{"type":"Point","coordinates":[8.915405,50.133362]}},{"type":"Feature","properties":{"marker-color":"red","marker-size":"small","name":"1e01e4fbf4aacfc6a5c56fdd8b5d0a90"},"geometry":{"type":"Point","coordinates":[8.519897,50.138855]}},{"type":"Feature","properties":{"marker-color":"red","marker-size":"small","name":"08cc09153beb74566697539e69735951"},"geometry":{"type":"Point","coordinates":[8.508911,50.303650]}},{"type":"Feature","properties":{"marker-color":"red","marker-size":"small","name":"1a34fceba00e8a6a80c3359a5aef9476"},"geometry":{"type":"Point","coordinates":[8.629761,50.402527]}},{"type":"Feature","properties":{"marker-color":"red","marker-size":"small","name":"1b2fc8e4e609fcbc378ac149a9067f62"},"geometry":{"type":"Point","coordinates":[8.662720,50.578308]}},{"type":"Feature","properties":{"marker-color":"red","marker-size":"small","name":"dfece447f547a19e543d0dd0a59eb6d2"},"geometry":{"type":"Point","coordinates":[8.618774,50.589294]}},{"type":"Feature","properties":{"marker-color":"red","marker-size":"small","name":"948287cdf5c22f98890ecd5fe2cb0da4"},"geometry":{"type":"Point","coordinates":[4.674683,50.699158]}},{"type":"Feature","properties":{"marker-color":"red","marker-size":"small","name":"e16089c2bdf3265d66282364f8866368"},"geometry":{"type":"Point","coordinates":[4.411011,50.841980]}},{"type":"Feature","properties":{"marker-color":"red","marker-size":"small","name":"a7f01c13dac8c182e29411135e78cf9c"},"geometry":{"type":"Point","coordinates":[4.400024,50.852966]}},{"type":"Feature","properties":{"marker-color":"red","marker-size":"small","name":"2a14d1c56a7356ab90bdf5acd441f9c8"},"geometry":{"type":"Point","coordinates":[4.454956,50.852966]}},{"type":"Feature","properties":{"marker-color":"red","marker-size":"small","name":"fad493a3cb1558ba52ee7338c29693dd"},"geometry":{"type":"Point","coordinates":[4.443970,50.869446]}},{"type":"Feature","properties":{"marker-color":"red","marker-size":"small","name":"34cb233a2b06451bfa8b83439d92c5c2"},"geometry":{"type":"Point","coordinates":[4.389038,50.874939]}},{"type":"Feature","properties":{"marker-color":"red","marker-size":"small","name":"2c48ccd666e58f8c2ca353d06ac08c69"},"geometry":{"type":"Point","coordinates":[4.465942,50.885925]}},{"type":"Feature","properties":{"marker-color":"red","marker-size":"small","name":"3d59ab8b870a24d90ec0841a431d17e9"},"geometry":{"type":"Point","coordinates":[4.465942,50.891418]}},{"type":"Feature","properties":{"marker-color":"red","marker-size":"small","name":"b9e90a5854c365b62d10e2f6f73cea60"},"geometry":{"type":"Point","coordinates":[4.509888,50.891418]}},{"type":"Feature","properties":{"marker-color":"red","marker-size":"small","name":"558d8bd1a5286324fa9bff4f4095fddf"},"geometry":{"type":"Point","coordinates":[4.356079,50.896912]}},{"type":"Feature","properties":{"marker-color":"red","marker-size":"small","name":"10b242ba11e395783c96365ca32bdaf8"},"geometry":{"type":"Point","coordinates":[4.400024,50.913391]}},{"type":"Feature","properties":{"marker-color":"red","marker-size":"small","name":"5c1375a1a0c4d399e4f9b5495dbdf02a"},"geometry":{"type":"Point","coordinates":[4.400024,50.918884]}},{"type":"Feature","properties":{"marker-color":"red","marker-size":"small","name":"1969a3d393715b777b3d191616b0ab9b"},"geometry":{"type":"Point","coordinates":[9.310913,51.281433]}},{"type":"Feature","properties":{"marker-color":"red","marker-size":"small","name":"0f9c5dc686946f9faca44995bee4a1e5"},"geometry":{"type":"Point","coordinates":[9.849243,53.676453]}},{"type":"Feature","properties":{"marker-color":"red","marker-size":"small","name":"541f78b3e5fccf506c5267b9aaaa9e26"},"geometry":{"type":"Point","coordinates":[10.112915,54.319153]}},{"type":"Feature","properties":{"marker-color":"red","marker-size":"small","name":"69de35ed41d36ff94280f4c23afd50da"},"geometry":{"type":"Point","coordinates":[10.991821,59.971619]}},{"type":"Feature","properties":{"marker-color":"red","marker-size":"small","name":"ab9a344e5a98f5bd39b7713e0de3e821"},"geometry":{"type":"Point","coordinates":[18.934937,69.601135]}},{"type":"Feature","properties":{"marker-color":"red","marker-size":"small","name":"d18dbdfda92bc6bc6cef9da23535b667"},"geometry":{"type":"Point","coordinates":[18.956909,69.628601]}},{"type":"Feature","properties":{"marker-color":"red","marker-size":"small","name":"e83e173a283894b0ef752aade6281ebd"},"geometry":{"type":"Point","coordinates":[18.989868,69.639587]}},{"type":"Feature","properties":{"marker-color":"red","marker-size":"small","name":"f563aad1521bbba56d0a14c1ba01d61c"},"geometry":{"type":"Point","coordinates":[18.956909,69.650574]}},{"type":"Feature","properties":{"marker-color":"red","marker-size":"small","name":"e1fef65096c9cc48b52db1531ac3f6a1"},"geometry":{"type":"Point","coordinates":[18.945923,69.672546]}},{"type":"Feature","properties":{"marker-color":"red","marker-size":"small","name":"06456e5e0bd7888628832cc16ba0bf29"},"geometry":{"type":"Point","coordinates":[18.825073,69.683533]}},{"type":"Feature","properties":{"marker-color":"red","marker-size":"small","name":"b6a0327b200aab1e86e978aaff8179d9"},"geometry":{"type":"Point","coordinates":[18.945923,69.683533]}},{"type":"Feature","properties":{"marker-color":"red","marker-size":"small","name":"d840955eafab19f95df566411d3c09af"},"geometry":{"type":"Point","coordinates":[18.869019,69.694519]}},{"type":"Feature","properties":{"marker-color":"green","marker-size":"small"},"geometry":{"type":"Point","coordinates":[7.662964,45.030212]}},{"type":"Feature","properties":{"marker-color":"green","marker-size":"small"},"geometry":{"type":"Point","coordinates":[7.673950,45.030212]}},{"type":"Feature","properties":{"marker-color":"green","marker-size":"small"},"geometry":{"type":"Point","coordinates":[7.673950,45.035706]}},{"type":"Feature","properties":{"marker-color":"green","marker-size":"small"},"geometry":{"type":"Point","coordinates":[7.673950,45.046692]}},{"type":"Feature","properties":{"marker-color":"green","marker-size":"small"},"geometry":{"type":"Point","coordinates":[7.673950,45.052185]}},{"type":"Feature","properties":{"marker-color":"green","marker-size":"small"},"geometry":{"type":"Point","coordinates":[7.684937,45.052185]}},{"type":"Feature","properties":{"marker-color":"green","marker-size":"small"},"geometry":{"type":"Point","coordinates":[7.684937,45.057678]}},{"type":"Feature","properties":{"marker-color":"green","marker-size":"small"},"geometry":{"type":"Point","coordinates":[7.684937,45.063171]}},{"type":"Feature","properties":{"marker-color":"green","marker-size":"small"},"geometry":{"type":"Point","coordinates":[7.651978,45.068665]}},{"type":"Feature","properties":{"marker-color":"green","marker-size":"small"},"geometry":{"type":"Point","coordinates":[7.662964,45.068665]}},{"type":"Feature","properties":{"marker-color":"green","marker-size":"small"},"geometry":{"type":"Point","coordinates":[7.684937,45.068665]}},{"type":"Feature","properties":{"marker-color":"green","marker-size":"small"},"geometry":{"type":"Point","coordinates":[7.695923,45.068665]}},{"type":"Feature","properties":{"marker-color":"green","marker-size":"small"},"geometry":{"type":"Point","coordinates":[7.651978,45.074158]}},{"type":"Feature","properties":{"marker-color":"green","marker-size":"small"},"geometry":{"type":"Point","coordinates":[7.673950,45.074158]}},{"type":"Feature","properties":{"marker-color":"green","marker-size":"small"},"geometry":{"type":"Point","coordinates":[7.684937,45.074158]}},{"type":"Feature","properties":{"marker-color":"green","marker-size":"small"},"geometry":{"type":"Point","coordinates":[7.695923,45.074158]}},{"type":"Feature","properties":{"marker-color":"green","marker-size":"small"},"geometry":{"type":"Point","coordinates":[7.553101,45.079651]}},{"type":"Feature","properties":{"marker-color":"green","marker-size":"small"},"geometry":{"type":"Point","coordinates":[7.651978,45.079651]}},{"type":"Feature","properties":{"marker-color":"green","marker-size":"small"},"geometry":{"type":"Point","coordinates":[7.673950,45.079651]}},{"type":"Feature","properties":{"marker-color":"green","marker-size":"small"},"geometry":{"type":"Point","coordinates":[7.684937,45.079651]}},{"type":"Feature","properties":{"marker-color":"green","marker-size":"small"},"geometry":{"type":"Point","coordinates":[7.695923,45.079651]}},{"type":"Feature","properties":{"marker-color":"green","marker-size":"small"},"geometry":{"type":"Point","coordinates":[7.651978,45.085144]}},{"type":"Feature","properties":{"marker-color":"green","marker-size":"small"},"geometry":{"type":"Point","coordinates":[7.410278,45.090637]}},{"type":"Feature","properties":{"marker-color":"green","marker-size":"small"},"geometry":{"type":"Point","coordinates":[7.564087,45.090637]}},{"type":"Feature","properties":{"marker-color":"green","marker-size":"small"},"geometry":{"type":"Point","coordinates":[5.861206,45.129089]}},{"type":"Feature","properties":{"marker-color":"green","marker-size":"small"},"geometry":{"type":"Point","coordinates":[5.696411,45.151062]}},{"type":"Feature","properties":{"marker-color":"green","marker-size":"small"},"geometry":{"type":"Point","coordinates":[5.707397,45.151062]}},{"type":"Feature","properties":{"marker-color":"green","marker-size":"small"},"geometry":{"type":"Point","coordinates":[5.850220,45.156555]}},{"type":"Feature","properties":{"marker-color":"green","marker-size":"small"},"geometry":{"type":"Point","coordinates":[5.718384,45.162048]}},{"type":"Feature","properties":{"marker-color":"green","marker-size":"small"},"geometry":{"type":"Point","coordinates":[5.729370,45.162048]}},{"type":"Feature","properties":{"marker-color":"green","marker-size":"small"},"geometry":{"type":"Point","coordinates":[5.718384,45.167542]}},{"type":"Feature","properties":{"marker-color":"green","marker-size":"small"},"geometry":{"type":"Point","coordinates":[5.729370,45.167542]}},{"type":"Feature","properties":{"marker-color":"green","marker-size":"small"},"geometry":{"type":"Point","coordinates":[5.729370,45.173035]}},{"type":"Feature","properties":{"marker-color":"green","marker-size":"small"},"geometry":{"type":"Point","coordinates":[5.707397,45.178528]}},{"type":"Feature","properties":{"marker-color":"green","marker-size":"small"},"geometry":{"type":"Point","coordinates":[5.718384,45.178528]}},{"type":"Feature","properties":{"marker-color":"green","marker-size":"small"},"geometry":{"type":"Point","coordinates":[5.729370,45.178528]}},{"type":"Feature","properties":{"marker-color":"green","marker-size":"small"},"geometry":{"type":"Point","coordinates":[5.707397,45.184021]}},{"type":"Feature","properties":{"marker-color":"green","marker-size":"small"},"geometry":{"type":"Point","coordinates":[5.718384,45.184021]}},{"type":"Feature","properties":{"marker-color":"green","marker-size":"small"},"geometry":{"type":"Point","coordinates":[5.729370,45.184021]}},{"type":"Feature","properties":{"marker-color":"green","marker-size":"small"},"geometry":{"type":"Point","coordinates":[5.740356,45.184021]}},{"type":"Feature","properties":{"marker-color":"green","marker-size":"small"},"geometry":{"type":"Point","coordinates":[5.751343,45.184021]}},{"type":"Feature","properties":{"marker-color":"green","marker-size":"small"},"geometry":{"type":"Point","coordinates":[5.762329,45.184021]}},{"type":"Feature","properties":{"marker-color":"green","marker-size":"small"},"geometry":{"type":"Point","coordinates":[5.773315,45.184021]}},{"type":"Feature","properties":{"marker-color":"green","marker-size":"small"},"geometry":{"type":"Point","coordinates":[5.817261,45.184021]}},{"type":"Feature","properties":{"marker-color":"green","marker-size":"small"},"geometry":{"type":"Point","coordinates":[5.707397,45.189514]}},{"type":"Feature","properties":{"marker-color":"green","marker-size":"small"},"geometry":{"type":"Point","coordinates":[5.718384,45.189514]}},{"type":"Feature","properties":{"marker-color":"green","marker-size":"small"},"geometry":{"type":"Point","coordinates":[5.729370,45.189514]}},{"type":"Feature","properties":{"marker-color":"green","marker-size":"small"},"geometry":{"type":"Point","coordinates":[5.740356,45.189514]}},{"type":"Feature","properties":{"marker-color":"green","marker-size":"small"},"geometry":{"type":"Point","coordinates":[5.751343,45.189514]}},{"type":"Feature","properties":{"marker-color":"green","marker-size":"small"},"geometry":{"type":"Point","coordinates":[5.762329,45.189514]}},{"type":"Feature","properties":{"marker-color":"green","marker-size":"small"},"geometry":{"type":"Point","coordinates":[5.773315,45.189514]}},{"type":"Feature","properties":{"marker-color":"green","marker-size":"small"},"geometry":{"type":"Point","coordinates":[5.784302,45.189514]}},{"type":"Feature","properties":{"marker-color":"green","marker-size":"small"},"geometry":{"type":"Point","coordinates":[5.817261,45.189514]}},{"type":"Feature","properties":{"marker-color":"green","marker-size":"small"},"geometry":{"type":"Point","coordinates":[5.707397,45.195007]}},{"type":"Feature","properties":{"marker-color":"green","marker-size":"small"},"geometry":{"type":"Point","coordinates":[5.718384,45.195007]}},{"type":"Feature","properties":{"marker-color":"green","marker-size":"small"},"geometry":{"type":"Point","coordinates":[5.729370,45.195007]}},{"type":"Feature","properties":{"marker-color":"green","marker-size":"small"},"geometry":{"type":"Point","coordinates":[5.751343,45.195007]}},{"type":"Feature","properties":{"marker-color":"green","marker-size":"small"},"geometry":{"type":"Point","coordinates":[5.762329,45.195007]}},{"type":"Feature","properties":{"marker-color":"green","marker-size":"small"},"geometry":{"type":"Point","coordinates":[5.773315,45.195007]}},{"type":"Feature","properties":{"marker-color":"green","marker-size":"small"},"geometry":{"type":"Point","coordinates":[5.784302,45.195007]}},{"type":"Feature","properties":{"marker-color":"green","marker-size":"small"},"geometry":{"type":"Point","coordinates":[5.696411,45.200500]}},{"type":"Feature","properties":{"marker-color":"green","marker-size":"small"},"geometry":{"type":"Point","coordinates":[5.707397,45.200500]}},{"type":"Feature","properties":{"marker-color":"green","marker-size":"small"},"geometry":{"type":"Point","coordinates":[5.718384,45.200500]}},{"type":"Feature","properties":{"marker-color":"green","marker-size":"small"},"geometry":{"type":"Point","coordinates":[5.773315,45.200500]}},{"type":"Feature","properties":{"marker-color":"green","marker-size":"small"},"geometry":{"type":"Point","coordinates":[5.784302,45.200500]}},{"type":"Feature","properties":{"marker-color":"green","marker-size":"small"},"geometry":{"type":"Point","coordinates":[5.685425,45.205994]}},{"type":"Feature","properties":{"marker-color":"green","marker-size":"small"},"geometry":{"type":"Point","coordinates":[5.696411,45.205994]}},{"type":"Feature","properties":{"marker-color":"green","marker-size":"small"},"geometry":{"type":"Point","coordinates":[5.707397,45.205994]}},{"type":"Feature","properties":{"marker-color":"green","marker-size":"small"},"geometry":{"type":"Point","coordinates":[5.718384,45.205994]}},{"type":"Feature","properties":{"marker-color":"green","marker-size":"small"},"geometry":{"type":"Point","coordinates":[5.784302,45.205994]}},{"type":"Feature","properties":{"marker-color":"green","marker-size":"small"},"geometry":{"type":"Point","coordinates":[5.795288,45.205994]}},{"type":"Feature","properties":{"marker-color":"green","marker-size":"small"},"geometry":{"type":"Point","coordinates":[5.685425,45.211487]}},{"type":"Feature","properties":{"marker-color":"green","marker-size":"small"},"geometry":{"type":"Point","coordinates":[5.696411,45.211487]}},{"type":"Feature","properties":{"marker-color":"green","marker-size":"small"},"geometry":{"type":"Point","coordinates":[5.795288,45.211487]}},{"type":"Feature","properties":{"marker-color":"green","marker-size":"small"},"geometry":{"type":"Point","coordinates":[5.806274,45.211487]}},{"type":"Feature","properties":{"marker-color":"green","marker-size":"small"},"geometry":{"type":"Point","coordinates":[6.487427,45.211487]}},{"type":"Feature","properties":{"marker-color":"green","marker-size":"small"},"geometry":{"type":"Point","coordinates":[5.674438,45.216980]}},{"type":"Feature","properties":{"marker-color":"green","marker-size":"small"},"geometry":{"type":"Point","coordinates":[5.685425,45.216980]}},{"type":"Feature","properties":{"marker-color":"green","marker-size":"small"},"geometry":{"type":"Point","coordinates":[5.674438,45.222473]}},{"type":"Feature","properties":{"marker-color":"green","marker-size":"small"},"geometry":{"type":"Point","coordinates":[5.817261,45.222473]}},{"type":"Feature","properties":{"marker-color":"green","marker-size":"small"},"geometry":{"type":"Point","coordinates":[5.663452,45.227966]}},{"type":"Feature","properties":{"marker-color":"green","marker-size":"small"},"geometry":{"type":"Point","coordinates":[5.674438,45.227966]}},{"type":"Feature","properties":{"marker-color":"green","marker-size":"small"},"geometry":{"type":"Point","coordinates":[5.663452,45.233459]}},{"type":"Feature","properties":{"marker-color":"green","marker-size":"small"},"geometry":{"type":"Point","coordinates":[5.663452,45.238953]}},{"type":"Feature","properties":{"marker-color":"green","marker-size":"small"},"geometry":{"type":"Point","coordinates":[5.663452,45.244446]}},{"type":"Feature","properties":{"marker-color":"green","marker-size":"small"},"geometry":{"type":"Point","coordinates":[5.652466,45.249939]}},{"type":"Feature","properties":{"marker-color":"green","marker-size":"small"},"geometry":{"type":"Point","coordinates":[5.641479,45.255432]}},{"type":"Feature","properties":{"marker-color":"green","marker-size":"small"},"geometry":{"type":"Point","coordinates":[5.630493,45.266418]}},{"type":"Feature","properties":{"marker-color":"green","marker-size":"small"},"geometry":{"type":"Point","coordinates":[5.619507,45.282898]}},{"type":"Feature","properties":{"marker-color":"green","marker-size":"small"},"geometry":{"type":"Point","coordinates":[5.619507,45.288391]}},{"type":"Feature","properties":{"marker-color":"green","marker-size":"small"},"geometry":{"type":"Point","coordinates":[5.586548,45.332336]}},{"type":"Feature","properties":{"marker-color":"green","marker-size":"small"},"geometry":{"type":"Point","coordinates":[5.564575,45.343323]}},{"type":"Feature","properties":{"marker-color":"green","marker-size":"small"},"geometry":{"type":"Point","coordinates":[5.575562,45.343323]}},{"type":"Feature","properties":{"marker-color":"green","marker-size":"small"},"geometry":{"type":"Point","coordinates":[5.399780,45.535583]}},{"type":"Feature","properties":{"marker-color":"green","marker-size":"small"},"geometry":{"type":"Point","coordinates":[5.377808,45.546570]}},{"type":"Feature","properties":{"marker-color":"green","marker-size":"small"},"geometry":{"type":"Point","coordinates":[5.311890,45.574036]}},{"type":"Feature","properties":{"marker-color":"green","marker-size":"small"},"geometry":{"type":"Point","coordinates":[5.278931,45.596008]}},{"type":"Feature","properties":{"marker-color":"green","marker-size":"small"},"geometry":{"type":"Point","coordinates":[5.267944,45.601501]}},{"type":"Feature","properties":{"marker-color":"green","marker-size":"small"},"geometry":{"type":"Point","coordinates":[5.070190,45.661926]}},{"type":"Feature","properties":{"marker-color":"green","marker-size":"small"},"geometry":{"type":"Point","coordinates":[5.048218,45.667419]}},{"type":"Feature","properties":{"marker-color":"green","marker-size":"small"},"geometry":{"type":"Point","coordinates":[4.982300,45.694885]}},{"type":"Feature","properties":{"marker-color":"green","marker-size":"small"},"geometry":{"type":"Point","coordinates":[4.960327,45.705872]}},{"type":"Feature","properties":{"marker-color":"green","marker-size":"small"},"geometry":{"type":"Point","coordinates":[5.059204,45.716858]}},{"type":"Feature","properties":{"marker-color":"green","marker-size":"small"},"geometry":{"type":"Point","coordinates":[4.839478,45.722351]}},{"type":"Feature","properties":{"marker-color":"green","marker-size":"small"},"geometry":{"type":"Point","coordinates":[4.828491,45.727844]}},{"type":"Feature","properties":{"marker-color":"green","marker-size":"small"},"geometry":{"type":"Point","coordinates":[4.916382,45.727844]}},{"type":"Feature","properties":{"marker-color":"green","marker-size":"small"},"geometry":{"type":"Point","coordinates":[4.828491,45.733337]}},{"type":"Feature","properties":{"marker-color":"green","marker-size":"small"},"geometry":{"type":"Point","coordinates":[4.861450,45.738831]}},{"type":"Feature","properties":{"marker-color":"green","marker-size":"small"},"geometry":{"type":"Point","coordinates":[4.861450,45.744324]}},{"type":"Feature","properties":{"marker-color":"green","marker-size":"small"},"geometry":{"type":"Point","coordinates":[4.861450,45.749817]}},{"type":"Feature","properties":{"marker-color":"green","marker-size":"small"},"geometry":{"type":"Point","coordinates":[4.905396,45.749817]}},{"type":"Feature","properties":{"marker-color":"green","marker-size":"small"},"geometry":{"type":"Point","coordinates":[4.861450,45.755310]}},{"type":"Feature","properties":{"marker-color":"green","marker-size":"small"},"geometry":{"type":"Point","coordinates":[4.905396,45.755310]}},{"type":"Feature","properties":{"marker-color":"green","marker-size":"small"},"geometry":{"type":"Point","coordinates":[4.861450,45.760803]}},{"type":"Feature","properties":{"marker-color":"green","marker-size":"small"},"geometry":{"type":"Point","coordinates":[4.982300,45.760803]}},{"type":"Feature","properties":{"marker-color":"green","marker-size":"small"},"geometry":{"type":"Point","coordinates":[5.092163,45.760803]}},{"type":"Feature","properties":{"marker-color":"green","marker-size":"small"},"geometry":{"type":"Point","coordinates":[4.861450,45.766296]}},{"type":"Feature","properties":{"marker-color":"green","marker-size":"small"},"geometry":{"type":"Point","coordinates":[4.850464,45.771790]}},{"type":"Feature","properties":{"marker-color":"green","marker-size":"small"},"geometry":{"type":"Point","coordinates":[4.861450,45.771790]}},{"type":"Feature","properties":{"marker-color":"green","marker-size":"small"},"geometry":{"type":"Point","coordinates":[4.861450,45.777283]}},{"type":"Feature","properties":{"marker-color":"green","marker-size":"small"},"geometry":{"type":"Point","coordinates":[4.894409,45.777283]}},{"type":"Feature","properties":{"marker-color":"green","marker-size":"small"},"geometry":{"type":"Point","coordinates":[4.971313,45.777283]}},{"type":"Feature","properties":{"marker-color":"green","marker-size":"small"},"geometry":{"type":"Point","coordinates":[4.795532,45.782776]}},{"type":"Feature","properties":{"marker-color":"green","marker-size":"small"},"geometry":{"type":"Point","coordinates":[4.806519,45.782776]}},{"type":"Feature","properties":{"marker-color":"green","marker-size":"small"},"geometry":{"type":"Point","coordinates":[4.861450,45.782776]}},{"type":"Feature","properties":{"marker-color":"green","marker-size":"small"},"geometry":{"type":"Point","coordinates":[4.806519,45.788269]}},{"type":"Feature","properties":{"marker-color":"green","marker-size":"small"},"geometry":{"type":"Point","coordinates":[4.861450,45.788269]}},{"type":"Feature","properties":{"marker-color":"green","marker-size":"small"},"geometry":{"type":"Point","coordinates":[4.883423,45.788269]}},{"type":"Feature","properties":{"marker-color":"green","marker-size":"small"},"geometry":{"type":"Point","coordinates":[4.806519,45.793762]}},{"type":"Feature","properties":{"marker-color":"green","marker-size":"small"},"geometry":{"type":"Point","coordinates":[4.806519,45.799255]}},{"type":"Feature","properties":{"marker-color":"green","marker-size":"small"},"geometry":{"type":"Point","coordinates":[4.806519,45.804749]}},{"type":"Feature","properties":{"marker-color":"green","marker-size":"small"},"geometry":{"type":"Point","coordinates":[4.806519,45.810242]}},{"type":"Feature","properties":{"marker-color":"green","marker-size":"small"},"geometry":{"type":"Point","coordinates":[4.806519,45.815735]}},{"type":"Feature","properties":{"marker-color":"green","marker-size":"small"},"geometry":{"type":"Point","coordinates":[4.795532,45.821228]}},{"type":"Feature","properties":{"marker-color":"green","marker-size":"small"},"geometry":{"type":"Point","coordinates":[4.795532,45.826721]}},{"type":"Feature","properties":{"marker-color":"green","marker-size":"small"},"geometry":{"type":"Point","coordinates":[5.037231,45.826721]}},{"type":"Feature","properties":{"marker-color":"green","marker-size":"small"},"geometry":{"type":"Point","coordinates":[4.740601,45.832214]}},{"type":"Feature","properties":{"marker-color":"green","marker-size":"small"},"geometry":{"type":"Point","coordinates":[4.795532,45.832214]}},{"type":"Feature","properties":{"marker-color":"green","marker-size":"small"},"geometry":{"type":"Point","coordinates":[4.795532,45.837708]}},{"type":"Feature","properties":{"marker-color":"green","marker-size":"small"},"geometry":{"type":"Point","coordinates":[5.015259,45.837708]}},{"type":"Feature","properties":{"marker-color":"green","marker-size":"small"},"geometry":{"type":"Point","coordinates":[5.004272,45.854187]}},{"type":"Feature","properties":{"marker-color":"green","marker-size":"small"},"geometry":{"type":"Point","coordinates":[4.740601,45.859680]}},{"type":"Feature","properties":{"marker-color":"green","marker-size":"small"},"geometry":{"type":"Point","coordinates":[4.817505,45.898132]}},{"type":"Feature","properties":{"marker-color":"green","marker-size":"small"},"geometry":{"type":"Point","coordinates":[4.828491,45.903625]}},{"type":"Feature","properties":{"marker-color":"green","marker-size":"small"},"geometry":{"type":"Point","coordinates":[4.850464,45.909119]}},{"type":"Feature","properties":{"marker-color":"green","marker-size":"small"},"geometry":{"type":"Point","coordinates":[2.257690,48.644714]}},{"type":"Feature","properties":{"marker-color":"green","marker-size":"small"},"geometry":{"type":"Point","coordinates":[2.257690,48.650208]}},{"type":"Feature","properties":{"marker-color":"green","marker-size":"small"},"geometry":{"type":"Point","coordinates":[2.268677,48.650208]}},{"type":"Feature","properties":{"marker-color":"green","marker-size":"small"},"geometry":{"type":"Point","coordinates":[2.279663,48.661194]}},{"type":"Feature","properties":{"marker-color":"green","marker-size":"small"},"geometry":{"type":"Point","coordinates":[2.191772,48.705139]}},{"type":"Feature","properties":{"marker-color":"green","marker-size":"small"},"geometry":{"type":"Point","coordinates":[2.213745,48.705139]}},{"type":"Feature","properties":{"marker-color":"green","marker-size":"small"},"geometry":{"type":"Point","coordinates":[2.235718,48.705139]}},{"type":"Feature","properties":{"marker-color":"green","marker-size":"small"},"geometry":{"type":"Point","coordinates":[2.235718,48.710632]}},{"type":"Feature","properties":{"marker-color":"green","marker-size":"small"},"geometry":{"type":"Point","coordinates":[2.246704,48.716125]}},{"type":"Feature","properties":{"marker-color":"green","marker-size":"small"},"geometry":{"type":"Point","coordinates":[2.169800,48.721619]}},{"type":"Feature","properties":{"marker-color":"green","marker-size":"small"},"geometry":{"type":"Point","coordinates":[2.246704,48.721619]}},{"type":"Feature","properties":{"marker-color":"green","marker-size":"small"},"geometry":{"type":"Point","coordinates":[2.257690,48.721619]}},{"type":"Feature","properties":{"marker-color":"green","marker-size":"small"},"geometry":{"type":"Point","coordinates":[2.169800,48.727112]}},{"type":"Feature","properties":{"marker-color":"green","marker-size":"small"},"geometry":{"type":"Point","coordinates":[2.257690,48.727112]}},{"type":"Feature","properties":{"marker-color":"green","marker-size":"small"},"geometry":{"type":"Point","coordinates":[2.125854,48.732605]}},{"type":"Feature","properties":{"marker-color":"green","marker-size":"small"},"geometry":{"type":"Point","coordinates":[2.268677,48.732605]}},{"type":"Feature","properties":{"marker-color":"green","marker-size":"small"},"geometry":{"type":"Point","coordinates":[2.125854,48.738098]}},{"type":"Feature","properties":{"marker-color":"green","marker-size":"small"},"geometry":{"type":"Point","coordinates":[2.279663,48.738098]}},{"type":"Feature","properties":{"marker-color":"green","marker-size":"small"},"geometry":{"type":"Point","coordinates":[2.290649,48.738098]}},{"type":"Feature","properties":{"marker-color":"green","marker-size":"small"},"geometry":{"type":"Point","coordinates":[2.114868,48.743591]}},{"type":"Feature","properties":{"marker-color":"green","marker-size":"small"},"geometry":{"type":"Point","coordinates":[2.125854,48.743591]}},{"type":"Feature","properties":{"marker-color":"green","marker-size":"small"},"geometry":{"type":"Point","coordinates":[2.290649,48.743591]}},{"type":"Feature","properties":{"marker-color":"green","marker-size":"small"},"geometry":{"type":"Point","coordinates":[2.301636,48.743591]}},{"type":"Feature","properties":{"marker-color":"green","marker-size":"small"},"geometry":{"type":"Point","coordinates":[2.301636,48.749084]}},{"type":"Feature","properties":{"marker-color":"green","marker-size":"small"},"geometry":{"type":"Point","coordinates":[2.301636,48.754578]}},{"type":"Feature","properties":{"marker-color":"green","marker-size":"small"},"geometry":{"type":"Point","coordinates":[2.301636,48.760071]}},{"type":"Feature","properties":{"marker-color":"green","marker-size":"small"},"geometry":{"type":"Point","coordinates":[2.301636,48.765564]}},{"type":"Feature","properties":{"marker-color":"green","marker-size":"small"},"geometry":{"type":"Point","coordinates":[2.312622,48.765564]}},{"type":"Feature","properties":{"marker-color":"green","marker-size":"small"},"geometry":{"type":"Point","coordinates":[2.312622,48.771057]}},{"type":"Feature","properties":{"marker-color":"green","marker-size":"small"},"geometry":{"type":"Point","coordinates":[2.312622,48.776550]}},{"type":"Feature","properties":{"marker-color":"green","marker-size":"small"},"geometry":{"type":"Point","coordinates":[2.312622,48.782043]}},{"type":"Feature","properties":{"marker-color":"green","marker-size":"small"},"geometry":{"type":"Point","coordinates":[2.125854,48.787537]}},{"type":"Feature","properties":{"marker-color":"green","marker-size":"small"},"geometry":{"type":"Point","coordinates":[2.312622,48.787537]}},{"type":"Feature","properties":{"marker-color":"green","marker-size":"small"},"geometry":{"type":"Point","coordinates":[2.125854,48.793030]}},{"type":"Feature","properties":{"marker-color":"green","marker-size":"small"},"geometry":{"type":"Point","coordinates":[2.312622,48.793030]}},{"type":"Feature","properties":{"marker-color":"green","marker-size":"small"},"geometry":{"type":"Point","coordinates":[2.323608,48.793030]}},{"type":"Feature","properties":{"marker-color":"green","marker-size":"small"},"geometry":{"type":"Point","coordinates":[2.125854,48.798523]}},{"type":"Feature","properties":{"marker-color":"green","marker-size":"small"},"geometry":{"type":"Point","coordinates":[2.323608,48.798523]}},{"type":"Feature","properties":{"marker-color":"green","marker-size":"small"},"geometry":{"type":"Point","coordinates":[2.125854,48.804016]}},{"type":"Feature","properties":{"marker-color":"green","marker-size":"small"},"geometry":{"type":"Point","coordinates":[2.323608,48.804016]}},{"type":"Feature","properties":{"marker-color":"green","marker-size":"small"},"geometry":{"type":"Point","coordinates":[2.334595,48.804016]}},{"type":"Feature","properties":{"marker-color":"green","marker-size":"small"},"geometry":{"type":"Point","coordinates":[2.092896,48.809509]}},{"type":"Feature","properties":{"marker-color":"green","marker-size":"small"},"geometry":{"type":"Point","coordinates":[2.103882,48.809509]}},{"type":"Feature","properties":{"marker-color":"green","marker-size":"small"},"geometry":{"type":"Point","coordinates":[2.114868,48.809509]}},{"type":"Feature","properties":{"marker-color":"green","marker-size":"small"},"geometry":{"type":"Point","coordinates":[2.125854,48.809509]}},{"type":"Feature","properties":{"marker-color":"green","marker-size":"small"},"geometry":{"type":"Point","coordinates":[2.334595,48.809509]}},{"type":"Feature","properties":{"marker-color":"green","marker-size":"small"},"geometry":{"type":"Point","coordinates":[2.092896,48.815002]}},{"type":"Feature","properties":{"marker-color":"green","marker-size":"small"},"geometry":{"type":"Point","coordinates":[2.103882,48.815002]}},{"type":"Feature","properties":{"marker-color":"green","marker-size":"small"},"geometry":{"type":"Point","coordinates":[2.114868,48.815002]}},{"type":"Feature","properties":{"marker-color":"green","marker-size":"small"},"geometry":{"type":"Point","coordinates":[2.345581,48.815002]}},{"type":"Feature","properties":{"marker-color":"green","marker-size":"small"},"geometry":{"type":"Point","coordinates":[2.114868,48.820496]}},{"type":"Feature","properties":{"marker-color":"green","marker-size":"small"},"geometry":{"type":"Point","coordinates":[2.334595,48.820496]}},{"type":"Feature","properties":{"marker-color":"green","marker-size":"small"},"geometry":{"type":"Point","coordinates":[2.334595,48.825989]}},{"type":"Feature","properties":{"marker-color":"green","marker-size":"small"},"geometry":{"type":"Point","coordinates":[2.334595,48.831482]}},{"type":"Feature","properties":{"marker-color":"green","marker-size":"small"},"geometry":{"type":"Point","coordinates":[2.334595,48.853455]}},{"type":"Feature","properties":{"marker-color":"green","marker-size":"small"},"geometry":{"type":"Point","coordinates":[2.367554,48.853455]}},{"type":"Feature","properties":{"marker-color":"green","marker-size":"small"},"geometry":{"type":"Point","coordinates":[2.290649,48.858948]}},{"type":"Feature","properties":{"marker-color":"green","marker-size":"small"},"geometry":{"type":"Point","coordinates":[2.323608,48.858948]}},{"type":"Feature","properties":{"marker-color":"green","marker-size":"small"},"geometry":{"type":"Point","coordinates":[2.334595,48.858948]}},{"type":"Feature","properties":{"marker-color":"green","marker-size":"small"},"geometry":{"type":"Point","coordinates":[2.301636,48.864441]}},{"type":"Feature","properties":{"marker-color":"green","marker-size":"small"},"geometry":{"type":"Point","coordinates":[2.323608,48.864441]}},{"type":"Feature","properties":{"marker-color":"green","marker-size":"small"},"geometry":{"type":"Point","coordinates":[2.334595,48.869934]}},{"type":"Feature","properties":{"marker-color":"green","marker-size":"small"},"geometry":{"type":"Point","coordinates":[2.334595,48.875427]}},{"type":"Feature","properties":{"marker-color":"green","marker-size":"small"},"geometry":{"type":"Point","coordinates":[2.389526,48.891907]}},{"type":"Feature","properties":{"marker-color":"green","marker-size":"small"},"geometry":{"type":"Point","coordinates":[8.574829,50.039978]}},{"type":"Feature","properties":{"marker-color":"green","marker-size":"small"},"geometry":{"type":"Point","coordinates":[8.563843,50.045471]}},{"type":"Feature","properties":{"marker-color":"green","marker-size":"small"},"geometry":{"type":"Point","coordinates":[4.476929,50.902405]}},{"type":"Feature","properties":{"marker-color":"green","marker-size":"small"},"geometry":{"type":"Point","coordinates":[4.487915,50.902405]}},{"type":"Feature","properties":{"marker-color":"green","marker-size":"small"},"geometry":{"type":"Point","coordinates":[18.934937,69.601135]}},{"type":"Feature","properties":{"marker-color":"green","marker-size":"small"},"geometry":{"type":"Point","coordinates":[18.934937,69.606628]}},{"type":"Feature","properties":{"marker-color":"green","marker-size":"small"},"geometry":{"type":"Point","coordinates":[18.956909,69.634094]}},{"type":"Feature","properties":{"marker-color":"green","marker-size":"small"},"geometry":{"type":"Point","coordinates":[18.967896,69.639587]}},{"type":"Feature","properties":{"marker-color":"green","marker-size":"small"},"geometry":{"type":"Point","coordinates":[18.945923,69.645081]}},{"type":"Feature","properties":{"marker-color":"green","marker-size":"small"},"geometry":{"type":"Point","coordinates":[18.956909,69.645081]}},{"type":"Feature","properties":{"marker-color":"green","marker-size":"small"},"geometry":{"type":"Point","coordinates":[18.956909,69.650574]}},{"type":"Feature","properties":{"marker-color":"green","marker-size":"small"},"geometry":{"type":"Point","coordinates":[18.912964,69.672546]}},{"type":"Feature","properties":{"marker-color":"green","marker-size":"small"},"geometry":{"type":"Point","coordinates":[18.923950,69.672546]}},{"type":"Feature","properties":{"marker-color":"green","marker-size":"small"},"geometry":{"type":"Point","coordinates":[18.901978,69.678040]}},{"type":"Feature","properties":{"marker-color":"green","marker-size":"small"},"geometry":{"type":"Point","coordinates":[18.912964,69.678040]}}]}